- name: Masai Mara National Reserve
  latitude: -1.484751
  longitude: 35.101904
- name: Serengeti National Park
  latitude: -2.333333
  longitude: 34.833332
- name: Okavango Delta
  latitude: -19.304543
  longitude: 22.643703
- name: Etosha National Park
  latitude: -18.855591
  longitude: 16.32932
- name: Kidepo Valley Park
  latitude: 3.882778
  longitude: 33.874444
